StnID,CWEEDS 2016 Station Name,Alias,Region Name,Design Heating DBT,Deep Ground Temperature DGT (calculate),HDD Below 18C,Latitude,Longitude,MLONG,Design Cooling dry bulb DBT,Design Cooling Wet Bulb DWT,FINDEX,City Name,Save to Record #
3010010,ABEE AGDM,ABEE AGDM,AB,-36.1,0,6131,54.28,-112.97,-7,27.3,19.7,0,ABEE ,78
3010237,ANDREW AGDM,ANDREW AGDM,AB,-34.6,0,5982,53.92,-112.28,-7,27.7,20.5,0,ANDREW ,79
3060406,ATMORE AGDM,ATMORE AGDM,AB,-36.6,0,5908,54.78,-112.82,-7,28.1,19.9,0,ATMORE,80
3050519,BANFF CS,BANFF CS,AB,-32.1,0,5614,51.19,-115.55,-7,28.0,15.4,0,BANFF,81
3030525,BARNWELL AGDM,BARNWELL AGDM,AB,-31.1,0,4549,49.80,-112.30,-7,31.4,20.1,0,BARNWELL,82
3060535,BARRHEAD CS,BARRHEAD CS,AB,-36.1,0,5597,54.09,-114.45,-7,28.7,20.1,0,BARRHEAD,83
3070600,BEAVERLODGE RCS,BEAVERLODGE RCS,AB,-34.8,0,5643,55.20,-119.40,-7,27.2,16.7,0,BEAVERLODGE,84
3030720,BLOOD TRIBE AGDM,BLOOD TRIBE AGDM,AB,-30.7,0,4692,49.57,-113.05,-7,29.9,19.7,0,BLOOD TRIBE,85
3010730,BODO AGDM,BODO AGDM,AB,-32.5,0,5449,52.12,-110.10,-7,29.8,19.9,0,BODO,86
3030768,BOW ISLAND,BOW ISLAND,AB,-30.8,0,4588,49.73,-111.45,-7,31.3,20.9,0,BOW ISLAND,87
3030772,BOW ISLAND IRRIGATION AGDM,BOW ISLAND IRRIGATION AGDM,AB,-30.4,0,4639,49.87,-111.38,-7,31.4,20.3,0,BOW ISLAND IRRIGATION,88
3050778,BOW VALLEY,BOW VALLEY,AB,-32.9,0,5159,51.08,-115.07,-7,29.1,17.3,0,BOW VALLEY,89
3010816,BRETON PLOTS,BRETON PLOTS,AB,-30.8,0,5150,53.09,-114.44,-7,28.5,20.2,0,BRETON PLOTS,90
3030830,BROCKET AGDM,BROCKET AGDM,AB,-29.1,0,4489,49.62,-113.82,-7,30.9,18.6,0,BROCKET,91
3030QLP,BROOKS,BROOKS,AB,-31.9,0,4903,50.56,-111.85,-7,31.7,20.3,0,BROOKS,92
3031092,CALGARY INTL A,CALGARY INTL A,AB,-29.8,0,4945,51.11,-114.02,-7,28.6,18.8,0,CALGARY ,93
3011240,CAMROSE,CAMROSE,AB,-34.1,0,5650,53.03,-112.81,-7,28.2,20.7,0,CAMROSE,94
3031322,CARDSTON,CARDSTON,AB,-29.4,0,4547,49.20,-113.29,-7,30.9,19.2,0,CARDSTON,95
3031480,CHAMPION AGDM,CHAMPION AGDM,AB,-30.7,0,4980,50.28,-113.35,-7,29.7,19.2,0,CHAMPION,96
3031640,CLARESHOLM,CLARESHOLM,AB,-30.7,0,4741,50.00,-113.64,-7,30.6,19.1,0,CLARESHOLM,97
3074935,CLEARDALE AGDM,CLEARDALE AGDM,AB,-38.0,0,6071,56.31,-119.74,-7,27.8,18.1,0,CLEARDALE,98
3081680,COLD LAKE A,COLD LAKE A,AB,-35.0,0,5763,54.42,-110.23,-7,28.1,19.9,0,COLD LAKE,99
3011815,CONSORT AGDM,CONSORT AGDM,AB,-33.1,0,5540,51.94,-110.71,-7,29.6,19.4,0,CONSORT,100
3031875,COP UPPER,COP UPPER,AB,-29.5,0,4888,51.08,-114.22,-7,28.2,17.8,0,COP UPPER,101
3011887,CORONATION CLIMATE,CORONATION CLIMATE,AB,-34.5,0,5797,52.07,-111.45,-7,30.0,18.7,0,CORONATION CLIMATE,102
3051R4R,CROWSNEST,CROWSNEST,AB,-32.3,0,5152,49.63,-114.48,-7,28.9,17.8,0,CROWSNEST,103
3061975,DAPP AGDM,DAPP AGDM,AB,-36.8,0,6101,54.32,-113.95,-7,27.0,20.6,0,DAPP,104
3042045,DEL BONITA AGDM,DEL BONITA AGDM,AB,-29.7,0,4970,49.05,-112.82,-7,30.2,17.3,0,DEL BONITA,105
30221LG,DRUMHELLER EAST,DRUMHELLER EAST,AB,-34.2,0,5069,51.45,-112.68,-7,31.7,19.8,0,DRUMHELLER EAST,106
3012202,EDMONTON CITY CENTRE AWOS,EDMONTON CITY CENTRE AWOS,AB,-30.2,0,5063,53.57,-113.52,-7,28.6,19.6,0,EDMONTON CITY CENTRE,107
3012216,EDMONTON INTL A,EDMONTON INTL A,AB,-34.3,0,5730,53.31,-113.58,-7,27.5,20.2,0,EDMONTON INTL,108
301A001,EDMONTON STONY PLAIN CS,EDMONTON STONY PLAIN CS,AB,-31.1,0,5224,53.55,-114.11,-7,27.6,19.3,0,EDMONTON STONY PLAIN,109
3062246,EDSON CLIMATE,EDSON CLIMATE,AB,-33.6,0,5611,53.58,-116.45,-7,27.2,18.2,0,EDSON CLIMATE,110
3012275,ELK ISLAND NAT PARK,ELK ISLAND NAT PARK,AB,-33.6,0,5498,53.68,-112.87,-7,28.2,20.1,0,ELK ISLAND NAT PARK,111
3032422,ENCHANT AGDM,ENCHANT AGDM,AB,-31.7,0,4746,50.18,-112.43,-7,30.4,20.4,0,ENCHANT,112
301B460,ESTHER 1,ESTHER 1,AB,-33.0,0,5355,51.67,-110.21,-7,31.4,21.0,0,ESTHER 1,113
3072525,FAIRVIEW AGDM,FAIRVIEW AGDM,AB,-34.8,0,5978,56.08,-118.44,-7,27.5,17.9,0,FAIRVIEW,114
3032550,FINCASTLE AGDM,FINCASTLE AGDM,AB,-30.0,0,4490,49.60,-112.03,-7,31.2,19.7,0,FINCASTLE,115
3032642,FOREMOST AGDM,FOREMOST AGDM,AB,-30.2,0,4633,49.48,-111.49,-7,32.5,19.1,0,FOREMOST,116
3062697,FORT MCMURRAY A,FORT MCMURRAY A,AB,-37.6,0,6207,56.65,-111.22,-7,28.8,19.1,0,FORT MCMURRAY,117
3072921,GRANDE PRAIRIE A,GRANDE PRAIRIE A,AB,-37.3,0,5778,55.18,-118.88,-7,27.4,18.2,0,GRANDE PRAIRIE,118
3063135,HENDRICKSON CREEK,HENDRICKSON CREEK,AB,-37.3,0,6630,53.80,-118.45,-7,25.2,14.7,0,HENDRICKSON CREEK,119
3073146,HIGH LEVEL A,HIGH LEVEL A,AB,-41.9,0,6751,58.62,-117.16,-7,27.3,18.5,0,HIGH LEVEL,120
3063165,HIGH PRAIRIE AGDM,HIGH PRAIRIE AGDM,AB,-37.0,0,5743,55.40,-116.48,-7,27.3,19.0,0,HIGH PRAIRIE,121
3013340,HOLDEN AGDM,HOLDEN AGDM,AB,-34.3,0,5724,53.19,-112.25,-7,28.7,19.7,0,HOLDEN,122
3023402,HUSSAR AGDM,HUSSAR AGDM,AB,-31.1,0,5250,51.18,-112.50,-7,28.2,19.3,0,HUSSAR,123
3033498,IRON SPRINGS AGDM,IRON SPRINGS AGDM,AB,-29.6,0,4621,49.90,-112.73,-7,29.7,20.2,0,IRON SPRINGS,124
3053536,JASPER WARDEN,JASPER WARDEN,AB,-33.2,0,5399,52.93,-118.03,-7,29.7,15.7,0,JASPER WARDEN,125
3013640,KILLAM AGDM,KILLAM AGDM,AB,-34.2,0,5741,52.85,-111.87,-7,28.8,19.9,0,KILLAM AGDM,126
3063686,LAC LA BICHE CLIMATE,LAC LA BICHE CLIMATE,AB,-35.0,0,5785,54.77,-112.02,-7,27.5,19.4,0,LAC LA BICHE CLIMATE,127
3023722,LACOMBE CDA 2,LACOMBE CDA 2,AB,-32.9,0,5552,52.45,-113.76,-7,28.1,20.3,0,LACOMBE,128
3033890,LETHBRIDGE CDA,LETHBRIDGE CDA,AB,-29.4,0,4318,49.70,-112.77,-7,31.5,19.9,0,LETHBRIDGE,129
3033897,LETHBRIDGE DEMO FARM AGDM,LETHBRIDGE DEMO FARM AGDM,AB,-30.1,0,4522,49.68,-112.75,-7,29.4,20.1,0,LETHBRIDGE DEMO FARM,130
3013959,LLOYDMINSTER A,LLOYDMINSTER A,AB,-33.6,0,5834,53.31,-110.07,-7,27.6,19.8,0,LLOYDMINSTER,131
3074190,MANNING AGDM,MANNING AGDM,AB,-40.8,0,6365,56.97,-117.45,-7,27.8,19.5,0,MANNING,132
3044232,MASINASIN AGDM,MASINASIN AGDM,AB,-29.0,0,4433,49.14,-111.65,-7,33.1,18.9,0,MASINASIN,133
3034485,MEDICINE HAT RCS,MEDICINE HAT RCS,AB,-31.9,0,4558,50.03,-110.72,-7,32.9,19.5,0,MEDICINE HAT,134
3064528,MILDRED LAKE,MILDRED LAKE,AB,-35.5,0,5924,57.04,-111.56,-7,29.1,18.9,0,MILDRED LAKE,135
3044533,MILK RIVER,MILK RIVER,AB,-30.8,0,4784,49.13,-112.05,-7,31.8,18.3,0,MILK RIVER,136
3024668,MORRIN AGDM,MORRIN AGDM,AB,-32.7,0,5465,51.66,-112.67,-7,29.6,19.8,0,MORRIN,137
3014665,MUNDARE AGDM,MUNDARE AGDM,AB,-33.0,0,5641,53.57,-112.30,-7,28.1,19.8,0,MUNDARE,138
305MGFF,NAKISKA RIDGETOP,NAKISKA RIDGETOP,AB,-27.8,0,7157,50.94,-115.19,-7,18.8,11.1,0,NAKISKA RIDGETOP,139
3054843,NORDEGG CS,NORDEGG CS,AB,-32.1,0,5720,52.49,-116.04,-7,26.9,16.4,0,NORDEGG,140
3024925,OLDS AGDM,OLDS AGDM,AB,-30.3,0,5331,51.76,-114.08,-7,27.4,19.3,0,OLDS,141
3014921,OLIVER AGDM,OLIVER AGDM,AB,-35.4,0,5475,53.65,-113.35,-7,28.8,20.2,0,OLIVER,142
3044923,ONEFOUR CDA,ONEFOUR CDA,AB,-30.1,0,4740,49.12,-110.47,-7,33.6,19.1,0,ONEFOUR,143
3024965,OYEN AGDM,OYEN AGDM,AB,-32.5,0,5314,51.38,-110.35,-7,30.7,19.9,0,OYEN,144
3075041,PEACE RIVER A,PEACE RIVER A,AB,-36.4,0,5960,56.23,-117.45,-7,27.3,18.5,0,PEACE RIVER,145
3075160,PEORIA AGDM,PEORIA AGDM,AB,-37.1,0,5910,55.62,-118.29,-7,27.6,18.5,0,PEORIA,146
3035198,PINCHER CREEK,PINCHER CREEK,AB,-30.8,0,4764,49.52,-114.00,-7,29.5,18.0,0,PINCHER CREEK,147
3025243,POLLOCKVILLE AGDM,POLLOCKVILLE AGDM,AB,-33.7,0,5434,51.13,-111.71,-7,31.7,19.5,0,POLLOCKVILLE,148
3025297,PRENTISS,PRENTISS,AB,-31.3,0,5303,52.43,-113.60,-7,26.9,19.6,0,PRENTISS,149
3035422,RAYMOND AGDM,RAYMOND AGDM,AB,-30.0,0,4535,49.48,-112.68,-7,30.4,19.3,0,RAYMOND,150
3025481,RED DEER REGIONAL A,RED DEER REGIONAL A,AB,-33.0,0,5555,52.18,-113.89,-7,28.0,19.4,0,RED DEER REGIONAL,151
3075488,RED EARTH,RED EARTH,AB,-37.8,0,6066,56.55,-115.28,-7,27.8,18.7,0,RED EARTH,152
3065475,RICH LAKE AGDM,RICH LAKE AGDM,AB,-36.2,0,6003,54.50,-111.70,-7,27.7,19.8,0,RICH LAKE,153
3015523,ROCKY MTN HOUSE (AUT),ROCKY MTN HOUSE (AUT),AB,-33.8,0,5883,52.42,-114.91,-7,26.8,18.2,0,ROCKY MTN HOUSE,154
3025768,SCHULER AGDM,SCHULER AGDM,AB,-31.6,0,4942,50.31,-110.09,-7,32.0,19.5,0,SCHULER,155
3035845,SEVEN PERSONS AGDM,SEVEN PERSONS AGDM,AB,-30.4,0,4746,49.92,-110.92,-7,32.1,19.8,0,SEVEN PERSONS,156
3065995,SLAVE LAKE,SLAVE LAKE,AB,-34.1,0,5819,55.29,-114.78,-7,26.1,19.1,0,SLAVE LAKE,157
3016022,SMOKY LAKE AGDM,SMOKY LAKE AGDM,AB,-36.3,0,5940,54.28,-112.50,-7,28.2,19.3,0,SMOKY LAKE,158
3076069,SPIRIT RIVER AUTO STATION,SPIRIT RIVER AUTO STATION,AB,-32.0,0,5710,55.69,-119.23,-7,25.0,17.0,0,SPIRIT RIVER AUTO STATION,159
3015676,ST PAUL AGCM,ST PAUL AGCM,AB,-36.3,0,6090,54.01,-111.27,-7,27.9,19.8,0,ST PAUL AGCM,160
3036099,STAVELY AAFC,STAVELY AAFC,AB,-29.6,0,4791,50.18,-113.28,-7,27.0,17.7,0,STAVELY AAFC,161
3016124,STETTLER AGDM,STETTLER AGDM,AB,-32.0,0,5405,52.35,-112.60,-7,29.1,19.5,0,STETTLER ,162
3036205,STRATHMORE AGDM,STRATHMORE AGDM,AB,-29.7,0,5097,51.03,-113.28,-7,27.9,19.1,0,STRATHMORE,163
3026KNQ,SUNDRE A,SUNDRE A,AB,-34.5,0,5661,51.78,-114.68,-7,28.1,17.9,0,SUNDRE,164
3026479,THREE HILLS,THREE HILLS,AB,-31.0,0,5272,51.77,-113.21,-7,28.9,20.1,0,THREE HILLS,165
3016655,TWO HILLS AGDM,TWO HILLS AGDM,AB,-34.3,0,5708,53.63,-111.68,-7,27.8,19.8,0,TWO HILLS,166
3076680,VALLEYVIEW AGDM,VALLEYVIEW AGDM,AB,-35.3,0,5513,55.10,-117.20,-7,27.8,18.3,0,VALLEYVIEW,167
3036682,VAUXHALL CDA CS,VAUXHALL CDA CS,AB,-31.9,0,4643,50.05,-112.13,-7,31.5,21.0,0,VAUXHALL ,168
3016GF0,VEGREVILLE,VEGREVILLE,AB,-35.4,0,5805,53.51,-112.10,-7,28.4,19.8,0,VEGREVILLE,169
3016802,VERMILION AGDM,VERMILION AGDM,AB,-34.1,0,5810,53.34,-110.88,-7,28.6,20.3,0,VERMILION,170
3016860,VIOLET GROVE CS,VIOLET GROVE CS,AB,-30.9,0,5207,53.14,-115.13,-7,27.6,18.9,0,VIOLET GROVE,171
301S001,WAINWRIGHT CFB AIRFIELD 21,WAINWRIGHT CFB AIRFIELD 21,AB,-34.5,0,5526,52.83,-111.10,-7,29.7,19.5,0,WAINWRIGHT CFB AIRFIELD 21,172
3056214,WATERTON PARK GATE,WATERTON PARK GATE,AB,-31.6,0,4699,49.13,-113.81,-7,29.5,17.7,0,WATERTON PARK GATE,173
3067371,WHITECOURT,WHITECOURT,AB,-32.1,0,5479,54.14,-115.78,-7,27.6,19.2,0,WHITECOURT,174
306GE70,WILLOW CREEK 1,WILLOW CREEK 1,AB,-35.4,0,6589,53.39,-118.35,-7,26.2,14.0,0,WILLOW CREEK 1,175
3037675,WRENTHAM AGDM,WRENTHAM AGDM,AB,-29.2,0,4578,49.50,-112.12,-7,31.1,19.4,0,WRENTHAM,176
1100031,ABBOTSFORD A,ABBOTSFORD A,BC,-8.2,0,2786,49.03,-122.36,-8,28.9,20.5,0,ABBOTSFORD,1
1100119,AGASSIZ RCS,AGASSIZ RCS,BC,-10.1,0,2803,49.24,-121.76,-8,29.5,21.8,0,AGASSIZ,2
1020590,BALLENAS ISLAND,BALLENAS ISLAND,BC,-1.3,0,2520,49.35,-124.16,-8,23.7,20.1,0,BALLENAS ISLAND,3
1160H99,BLUE RIVER CS,BLUE RIVER CS,BC,-32.2,0,4893,52.13,-119.29,-8,31.3,18.0,0,BLUE RIVER,4
1060R0K,BONILLA ISLAND (AUT),BONILLA ISLAND (AUT),BC,-5.2,0,3504,53.49,-130.64,-8,15.2,14.4,0,BONILLA ISLAND,5
1091174,BURNS LAKE DECKER LAKE,BURNS LAKE DECKER LAKE,BC,-33.1,0,5734,54.38,-125.96,-8,27.6,17.5,0,BURNS LAKE DECKER LAKE,6
1101300,CALLAGHAN VALLEY,CALLAGHAN VALLEY,BC,-18.6,0,4606,50.14,-123.11,-8,27.9,16.7,0,CALLAGHAN VALLEY,7
1051351,CAPE ST JAMES,CAPE ST JAMES,BC,-2.0,0,3320,51.94,-131.02,-8,17.8,15.7,0,CAPE ST JAMES,8
1061458,CATHEDRAL POINT (AUT),CATHEDRAL POINT (AUT),BC,-11.1,0,3462,52.19,-127.47,-8,23.0,18.0,0,CATHEDRAL POINT,9
1161661,CLINTON (AUT),CLINTON (AUT),BC,-28.5,0,5013,51.12,-121.50,-8,29.4,16.0,0,CLINTON,10
1021830,COMOX A,COMOX A,BC,-5.0,0,2972,49.72,-124.90,-8,26.5,18.8,0,COMOX ,11
1152105,CRANBROOK A,CRANBROOK A,BC,-25.2,0,4415,49.61,-115.78,-8,32.1,18.0,0,CRANBROOK,12
114B1F0,CRESTON CAMPBELL SCIENTIFIC,CRESTON CAMPBELL SCIENTIFIC,BC,-15.7,0,3612,49.08,-116.50,-8,32.9,21.6,0,CRESTON CAMPBELL SCIENTIFIC,13
1062251,CUMSHEWA ISLAND,CUMSHEWA ISLAND,BC,-3.0,0,3395,53.03,-131.60,-8,17.3,15.5,0,CUMSHEWA ISLAND,14
1182289,DAWSON CREEK A,DAWSON CREEK A,BC,-36.9,0,5732,55.74,-120.18,-7,27.2,17.8,0,DAWSON CREEK,15
1012475,DISCOVERY ISLAND,DISCOVERY ISLAND,BC,-1.7,0,2657,48.42,-123.23,-8,21.8,19.8,0,DISCOVERY ISLAND,16
1022689,ENTRANCE ISLAND,ENTRANCE ISLAND,BC,-2.0,0,2595,49.21,-123.81,-8,23.6,19.9,0,ENTRANCE ISLAND,17
1012710,ESQUIMALT HARBOUR,ESQUIMALT HARBOUR,BC,-2.9,0,2952,48.43,-123.44,-8,21.5,16.6,0,ESQUIMALT HARBOUR,18
1032731,ESTEVAN POINT CS,ESTEVAN POINT CS,BC,-2.4,0,3081,49.38,-126.54,-8,18.6,17.0,0,ESTEVAN POINT,19
1022795,FANNY ISLAND,FANNY ISLAND,BC,-4.6,0,3374,50.45,-125.99,-8,18.0,14.9,0,FANNY ISLAND,20
1192946,FORT NELSON A,FORT NELSON A,BC,-39.3,0,6663,58.84,-122.60,-8,27.8,18.4,0,FORT NELSON,21
1183001,FORT ST JOHN A,FORT ST JOHN A,BC,-33.6,0,5734,56.24,-120.74,-8,26.3,17.4,0,FORT ST JOHN,22
1063303,GREY ISLET (AUT),GREY ISLET (AUT),BC,-8.5,0,3604,54.58,-130.70,-8,18.0,15.6,0,GREY ISLET ,23
1063461,HERBERT ISLAND (AUT),HERBERT ISLAND (AUT),BC,-1.1,0,3361,50.94,-127.63,-8,15.9,14.7,0,HERBERT ISLAND,24
1063496,HOLLAND ROCK,HOLLAND ROCK,BC,-7.9,0,3630,54.17,-130.36,-8,15.5,14.8,0,HOLLAND ROCK,25
1113542,HOPE A,HOPE A,BC,-11.9,0,2967,49.37,-121.50,-8,29.6,21.0,0,HOPE,26
10459NN,HOWE SOUND - PAM ROCKS,HOWE SOUND - PAM ROCKS,BC,-4.0,0,2665,49.49,-123.30,-8,24.0,19.4,0,HOWE SOUND - PAM ROCKS,27
1163781,KAMLOOPS A,KAMLOOPS A,BC,-20.7,0,3382,50.70,-120.45,-8,34.7,19.3,0,KAMLOOPS,28
1123939,KELOWNA,KELOWNA,BC,-18.9,0,3747,49.96,-119.38,-8,33.7,19.5,0,KELOWNA,29
1054222,KINDAKUN ROCKS (AUT),KINDAKUN ROCKS (AUT),BC,-2.5,0,3422,53.32,-132.77,-8,15.2,14.1,0,KINDAKUN ROCKS,30
1054503,LANGARA ISLAND RCS,LANGARA ISLAND RCS,BC,-5.3,0,3663,54.26,-133.06,-8,16.1,14.7,0,LANGARA ISLAND,31
1114619,LILLOOET,LILLOOET,BC,-20.1,0,3264,50.68,-121.93,-8,35.5,25.9,0,LILLOOET,32
1064728,LUCY ISLAND LIGHTSTATION,LUCY ISLAND LIGHTSTATION,BC,-6.3,0,3668,54.30,-130.61,-8,16.4,15.6,0,LUCY ISLAND LIGHTSTATION,33
1114746,LYTTON RCS,LYTTON RCS,BC,-18.4,0,3169,50.22,-121.58,-8,35.1,19.5,0,LYTTON,34
1184791,MACKENZIE,MACKENZIE,BC,-34.9,0,5430,55.30,-123.13,-8,27.8,17.0,0,MACKENZIE,35
1014820,MALAHAT,MALAHAT,BC,-6.1,0,3173,48.57,-123.53,-8,27.4,21.6,0,MALAHAT,36
1145297,NAKUSP CS,NAKUSP CS,BC,-15.0,0,3740,50.27,-117.82,-8,31.5,20.5,0,NAKUSP,37
1145M29,NELSON CS,NELSON CS,BC,-13.9,0,3518,49.49,-117.31,-8,32.5,20.7,0,NELSON,38
1125852,OSOYOOS CS,OSOYOOS CS,BC,-14.1,0,3094,49.03,-119.44,-8,35.5,21.1,0,OSOYOOS,39
1086082,PEMBERTON AIRPORT CS,PEMBERTON AIRPORT CS,BC,-16.2,0,3662,50.31,-122.73,-8,33.6,20.8,0,PEMBERTON AIRPORT,40
1126146,PENTICTON A,PENTICTON A,BC,-14.4,0,3283,49.46,-119.60,-8,33.5,20.1,0,PENTICTON A,41
1106178,PITT MEADOWS CS,PITT MEADOWS CS,BC,-8.6,0,2894,49.21,-122.69,-8,29.3,21.0,0,PITT MEADOWS,42
1106200,POINT ATKINSON,POINT ATKINSON,BC,-2.5,0,2341,49.33,-123.26,-8,24.8,22.0,0,POINT ATKINSON,43
1026271,PORT HARDY A,PORT HARDY A,BC,-4.2,0,3468,50.68,-127.37,-8,19.6,16.0,0,PORT HARDY,44
1096439,PRINCE GEORGE,PRINCE GEORGE,BC,-31.5,0,4991,53.89,-122.67,-8,28.0,17.5,0,PRINCE GEORGE,45
1066482,PRINCE RUPERT,PRINCE RUPERT,BC,-11.0,0,3726,54.29,-130.44,-8,18.0,15.4,0,PRINCE RUPERT,46
112FN0M,PRINCETON CS,PRINCETON CS,BC,-25.1,0,4347,49.47,-120.51,-8,33.0,19.7,0,PRINCETON,47
1086558,PUNTZI MOUNTAIN (AUT),PUNTZI MOUNTAIN (AUT),BC,-37.3,0,5609,52.11,-124.14,-8,29.6,16.5,0,PUNTZI MOUNTAIN,48
1096629,QUESNEL,QUESNEL,BC,-30.8,0,4631,53.03,-122.51,-8,29.7,18.3,0,QUESNEL,49
1176749,REVELSTOKE A,REVELSTOKE A,BC,-19.4,0,3985,50.96,-118.18,-8,31.0,20.0,0,REVELSTOKE,50
1056869,ROSE SPIT (AUT),ROSE SPIT (AUT),BC,-5.9,0,3628,54.16,-131.66,-8,16.1,15.0,0,ROSE SPIT,51
116FRMN,SALMON ARM CS,SALMON ARM CS,BC,-19.7,0,3606,50.70,-119.29,-8,32.3,22.2,0,SALMON ARM,52
1107010,SANDHEADS CS,SANDHEADS CS,BC,-4.4,0,2720,49.11,-123.30,-8,22.3,19.8,0,SANDHEADS,53
1057052,SANDSPIT,SANDSPIT,BC,-4.0,0,3445,53.25,-131.81,-8,19.0,15.9,0,SANDSPIT,54
1037090,SARTINE ISLAND (AUT),SARTINE ISLAND (AUT),BC,-1.2,0,3440,50.82,-128.91,-8,14.8,14.1,0,SARTINE ISLAND,55
1017101,SATURNA ISLAND CS,SATURNA ISLAND CS,BC,-3.1,0,2565,48.78,-123.04,-8,25.7,20.2,0,SATURNA ISLAND,56
1017254,SHERINGHAM POINT,SHERINGHAM POINT,BC,-1.9,0,2956,48.38,-123.92,-8,19.9,17.4,0,SHERINGHAM POINT,57
1027403,SISTERS ISLAND,SISTERS ISLAND,BC,-2.0,0,2602,49.49,-124.43,-8,23.7,19.4,0,SISTERS ISLAND,58
1077499,SMITHERS,SMITHERS,BC,-27.8,0,5010,54.83,-127.18,-8,27.2,17.5,0,SMITHERS,59
1037553,SOLANDER ISLAND (AUT),SOLANDER ISLAND (AUT),BC,-0.1,0,3353,50.11,-127.94,-8,15.5,14.5,0,SOLANDER ISLAND,60
1157631,SPARWOOD CS,SPARWOOD CS,BC,-28.4,0,4996,49.75,-114.88,-8,30.1,17.6,0,SPARWOOD,61
10476F0,SQUAMISH AIRPORT,SQUAMISH AIRPORT,BC,-8.6,0,3209,49.78,-123.16,-8,28.7,19.5,0,SQUAMISH AIRPORT,62
112G8L1,SUMMERLAND CS,SUMMERLAND CS,BC,-15.9,0,3373,49.56,-119.65,-8,33.4,19.4,0,SUMMERLAND,63
1088015,TATLAYOKO LAKE RCS,TATLAYOKO LAKE RCS,BC,-27.7,0,5078,51.67,-124.40,-8,28.3,16.0,0,TATLAYOKO LAKE,64
1068134,TERRACE A,TERRACE A,BC,-19.0,0,4233,54.47,-128.58,-8,27.5,18.0,0,TERRACE,65
1108395,VANCOUVER INTL A,VANCOUVER INTL A,BC,-6.4,0,2791,49.19,-123.18,-8,25.1,19.3,0,VANCOUVER INTL,66
1128582,VERNON AUTO,VERNON AUTO,BC,-19.6,0,3696,50.22,-119.19,-8,33.3,19.9,0,VERNON,67
1018611,VICTORIA GONZALES CS,VICTORIA GONZALES CS,BC,-3.0,0,2792,48.41,-123.32,-8,22.9,17.6,0,VICTORIA GONZALES,68
1018FJ5,VICTORIA HARTLAND CS,VICTORIA HARTLAND CS,BC,-3.8,0,2794,48.53,-123.46,-8,28.3,20.2,0,VICTORIA HARTLAND,69
1018621,VICTORIA INTL A,VICTORIA INTL A,BC,-4.1,0,2891,48.65,-123.43,-8,26.2,18.2,0,VICTORIA INTL,70
1018598,VICTORIA UNIVERSITY CS,VICTORIA UNIVERSITY CS,BC,-2.8,0,2687,48.46,-123.30,-8,26.6,19.4,0,VICTORIA UNIVERSITY,71
1148705,WARFIELD RCS,WARFIELD RCS,BC,-16.3,0,3720,49.11,-117.74,-8,34.4,19.6,0,WARFIELD,72
1108824,WEST VANCOUVER AUT,WEST VANCOUVER AUT,BC,-6.4,0,2865,49.35,-123.19,-8,27.3,20.8,0,WEST VANCOUVER,73
1100875,WHISTLER - NESTERS,WHISTLER - NESTERS,BC,-18.2,0,4236,50.13,-122.95,-8,30.3,17.5,0,WHISTLER - NESTERS,74
1108910,WHITE ROCK CS,WHITE ROCK CS,BC,-6.3,0,2671,49.02,-123.78,-8,24.4,19.8,0,WHITE ROCK,75
1098941,WILLIAMS LAKE A,WILLIAMS LAKE A,BC,-30.0,0,4904,52.18,-122.05,-8,28.4,16.1,0,WILLIAMS LAKE ,76
11790J1,YOHO PARK,YOHO PARK,BC,-31.1,0,6506,51.44,-116.36,-8,25.6,15.0,0,YOHO PARK,77
5030203,BERENS RIVER CS,BERENS RIVER CS,MB,-34.5,0,6411,52.36,-97.02,-6,27.4,21.7,0,BERENS RIVER,219
5010481,BRANDON A,BRANDON A,MB,-34.2,0,5822,49.91,-99.95,-6,29.4,22.5,0,BRANDON,220
5010547,CARBERRY CS,CARBERRY CS,MB,-34.7,0,5792,49.91,-99.36,-6,29.4,23.9,0,CARBERRY,221
502I001,CARMAN U OF M CS,CARMAN U OF M CS,MB,-33.5,0,5515,49.50,-98.03,-6,29.6,24.7,0,CARMAN U OF M,222
5060600,CHURCHILL A,CHURCHILL A,MB,-39.3,0,8583,58.74,-94.07,-6,25.8,18.6,0,CHURCHILL,223
5040689,DAUPHIN,DAUPHIN,MB,-33.0,0,5704,51.10,-100.05,-6,29.3,22.7,0,DAUPHIN,224
5020725,DEERWOOD RCS,DEERWOOD RCS,MB,-29.9,0,5408,49.40,-98.32,-6,29.6,23.6,0,DEERWOOD,225
5040764,DELTA MARSH CS,DELTA MARSH CS,MB,-33.8,0,5609,50.18,-98.38,-6,28.9,23.8,0,DELTA MARSH,226
5020881,EMERSON AUTO,EMERSON AUTO,MB,-32.9,0,5386,49.01,-97.24,-6,30.1,23.9,0,EMERSON,227
50309J6,FISHER BRANCH (AUT),FISHER BRANCH (AUT),MB,-35.5,0,5958,51.08,-97.55,-6,28.9,22.4,0,FISHER BRANCH,228
5050919,FLIN FLON,FLIN FLON,MB,-37.1,0,6643,54.68,-101.68,-6,27.9,19.7,0,FLIN FLON,229
5030984,GEORGE ISLAND (AUT),GEORGE ISLAND (AUT),MB,-31.9,0,6333,52.82,-97.62,-6,25.4,21.0,0,GEORGE ISLAND,230
5061022,GILLAM A,GILLAM A,MB,-38.3,0,7751,56.36,-94.71,-6,27.4,19.6,0,GILLAM,231
5031042,GIMLI CLIMATE,GIMLI CLIMATE,MB,-35.8,0,5858,50.63,-97.05,-6,28.6,23.0,0,GIMLI CLIMATE,232
5031041,GIMLI HARBOUR CS,GIMLI HARBOUR CS,MB,-32.4,0,5712,50.63,-96.98,-6,28.2,23.4,0,GIMLI HARBOUR,233
5031A10,GRAND RAPIDS (AUT),GRAND RAPIDS (AUT),MB,-37.3,0,6661,53.19,-99.27,-6,28.5,21.0,0,GRAND RAPIDS,234
5021220,GRETNA (AUT),GRETNA (AUT),MB,-32.3,0,5435,49.03,-97.56,-6,29.8,24.1,0,GRETNA,235
5061376,ISLAND LAKE A,ISLAND LAKE A,MB,-36.8,0,6710,53.85,-94.65,-6,27.7,20.8,0,ISLAND LAKE,236
5061422,KELSEY DAM CS,KELSEY DAM CS,MB,-38.2,0,7530,56.04,-96.51,-6,27.5,20.0,0,KELSEY DAM,237
5061645,LYNN LAKE,LYNN LAKE,MB,-40.1,0,7544,56.86,-101.08,-6,27.5,18.7,0,LYNN LAKE,238
5043158,MCCREARY,MCCREARY,MB,-31.6,0,5533,50.71,-99.53,-6,29.5,22.9,0,MCCREARY,239
501A7AR,MELITA,MELITA,MB,-33.9,0,5508,49.28,-100.99,-6,29.8,23.4,0,MELITA,240
5021849,MORDEN CDA CS,MORDEN CDA CS,MB,-30.4,0,5290,49.19,-98.08,-6,30.2,24.0,0,MORDEN,241
5062040,NORWAY HOUSE,NORWAY HOUSE,MB,-38.0,0,6672,53.96,-97.85,-6,27.6,20.5,0,NORWAY HOUSE,242
504K0NM,OAKPOINT MARINE,OAKPOINT MARINE,MB,-33.7,0,5823,50.50,-98.04,-6,27.9,23.7,0,OAKPOINT MARINE,243
5022125,PILOT MOUND (AUT),PILOT MOUND (AUT),MB,-33.2,0,5739,49.19,-98.90,-6,28.5,23.8,0,PILOT MOUND,244
503B1ER,PINAWA,PINAWA,MB,-36.4,0,5697,50.18,-96.06,-6,29.1,22.5,0,PINAWA,245
5012324,PORTAGE SOUTHPORT,PORTAGE SOUTHPORT,MB,-31.0,0,5423,49.90,-98.28,-6,29.7,24.0,0,PORTAGE SOUTHPORT,246
5012469,ROBLIN,ROBLIN,MB,-35.4,0,6095,51.18,-101.36,-6,27.8,22.2,0,ROBLIN,247
5012654,SHOAL LAKE CS,SHOAL LAKE CS,MB,-35.2,0,6076,50.45,-100.60,-6,27.8,22.7,0,SHOAL LAKE,248
5022759,SPRAGUE,SPRAGUE,MB,-35.7,0,5568,49.02,-95.60,-6,29.4,23.1,0,SPRAGUE,249
504K80K,SWAN RIVER RCS,SWAN RIVER RCS,MB,-33.9,0,6040,52.11,-101.23,-6,29.0,21.7,0,SWAN RIVER,250
5052881,THE PAS A,THE PAS A,MB,-35.5,0,6382,53.97,-101.09,-6,28.2,21.0,0,THE PAS,251
5062921,THOMPSON A,THOMPSON A,MB,-40.2,0,7468,55.80,-97.86,-6,27.8,19.7,0,THOMPSON,252
5032951,VICTORIA BEACH (AUT),VICTORIA BEACH (AUT),MB,-33.1,0,5528,50.70,-96.57,-6,28.3,23.7,0,VICTORIA BEACH,253
5013117,WASAGAMING,WASAGAMING,MB,-36.9,0,6359,50.66,-99.94,-6,27.8,21.1,0,WASAGAMING,254
5023227,WINNIPEG INTL A,WINNIPEG INTL A,MB,-33.9,0,5601,49.91,-97.24,-6,30.0,23.4,0,WINNIPEG INTL,255
5023262,WINNIPEG THE FORKS,WINNIPEG THE FORKS,MB,-30.5,0,5254,49.89,-97.13,-6,30.7,23.2,0,WINNIPEG THE FORKS,256
8100467,BAS CARAQUET,BAS CARAQUET,NB,-22.8,0,4735,47.80,-64.83,-4,27.1,22.0,0,BAS CARAQUET,398
8100505,BATHURST A,BATHURST A,NB,-27.2,0,4921,47.63,-65.74,-4,29.2,22.1,0,BATHURST,399
8100885,CHARLO AUTO,CHARLO AUTO,NB,-27.4,0,5100,47.99,-66.33,-4,28.0,21.2,0,CHARLO,400
8101303,EDMUNDSTON,EDMUNDSTON,NB,-35.8,0,5414,47.42,-68.32,-4,28.5,21.7,0,EDMUNDSTON,401
8101505,FREDERICTON,FREDERICTON,NB,-26.1,0,4469,45.87,-66.54,-4,29.3,22.3,0,FREDERICTON,402
8101925,GRAND MANAN SAR CS,GRAND MANAN SAR CS,NB,-20.3,0,4284,44.71,-66.80,-4,25.7,21.2,0,GRAND MANAN SAR,403
8100989,MIRAMICHI RCS,MIRAMICHI RCS,NB,-26.8,0,4714,47.01,-65.46,-4,29.5,22.2,0,MIRAMICHI,404
8103050,MISCOU ISLAND (AUT),MISCOU ISLAND (AUT),NB,-21.8,0,4844,48.01,-64.49,-4,26.0,21.2,0,MISCOU ISLAND,405
8103201,MONCTON INTL A,MONCTON INTL A,NB,-24.6,0,4512,46.11,-64.68,-4,28.4,22.3,0,MONCTON INTL,406
8104201,POINT LEPREAU CS,POINT LEPREAU CS,NB,-21.5,0,4259,45.07,-66.45,-4,22.2,18.4,0,POINT LEPREAU,407
8104901,SAINT JOHN A,SAINT JOHN A,NB,-24.5,0,4574,45.32,-65.89,-4,25.8,20.2,0,SAINT JOHN,408
810I001,ST LEONARD CS,ST LEONARD CS,NB,-28.8,0,5190,47.16,-67.83,-4,28.0,21.7,0,ST LEONARD,409
8104935,ST. STEPHEN,ST. STEPHEN,NB,-25.5,0,4406,45.22,-67.25,-4,29.2,22.1,0,ST. STEPHEN,410
8400104,ARGENTIA (AUT),ARGENTIA (AUT),NL,-12.6,0,4298,47.29,-53.99,-4,19.4,17.9,0,ARGENTIA,447
8400301,BADGER (AUT),BADGER (AUT),NL,-26.3,0,5157,48.97,-56.07,-4,28.7,21.4,0,BADGER,448
8400601,BONAVISTA,BONAVISTA,NL,-13.7,0,4612,48.67,-53.11,-4,24.4,20.1,0,BONAVISTA,449
8400801,BURGEO NL,BURGEO NL,NL,-14.5,0,4602,47.62,-57.62,-4,20.0,17.6,0,BURGEO NL,450
8401000,CAPE RACE (AUT),CAPE RACE (AUT),NL,-13.8,0,4697,46.66,-53.08,-4,19.1,17.6,0,CAPE RACE,451
8501100,CARTWRIGHT,CARTWRIGHT,NL,-27.5,0,6215,53.71,-57.03,-4,24.5,18.4,0,CARTWRIGHT,452
8501131,CHURCHILL FALLS,CHURCHILL FALLS,NL,-36.5,0,7328,53.56,-64.07,-4,24.8,17.2,0,CHURCHILL FALLS,453
8401298,CORNER BROOK,CORNER BROOK,NL,-17.5,0,4833,48.98,-57.92,-4,26.4,20.7,0,CORNER BROOK,454
8401400,DANIELS HARBOUR,DANIELS HARBOUR,NL,-21.0,0,5067,50.24,-57.58,-4,21.3,18.7,0,DANIELS HARBOUR,455
8401502,DEER LAKE A,DEER LAKE A,NL,-22.1,0,4962,49.21,-57.39,-4,27.2,20.7,0,DEER LAKE A,456
8401538,ENGLEE (AUT),ENGLEE (AUT),NL,-21.5,0,5311,50.72,-56.11,-4,23.3,18.7,0,ENGLEE,457
8401565,FEROLLE POINT (AUT),FEROLLE POINT (AUT),NL,-22.8,0,5437,51.02,-57.10,-4,18.9,17.4,0,FEROLLE POINT,458
8401703,GANDER INTL A,GANDER INTL A,NL,-18.4,0,4820,48.94,-54.57,-4,27.0,20.8,0,GANDER INTL ,459
8501900,GOOSE A,GOOSE A,NL,-31.1,0,6287,53.32,-60.42,-4,27.7,18.9,0,GOOSE,460
8502400,HOPEDALE (AUT),HOPEDALE (AUT),NL,-28.8,0,6888,55.45,-60.22,-4,21.2,16.1,0,HOPEDALE,461
8402520,LA SCIE,LA SCIE,NL,-20.0,0,5262,49.92,-55.67,-4,26.4,20.1,0,LA SCIE,462
8502592,MARY'S HARBOUR A,MARY'S HARBOUR A,NL,-27.7,0,6006,52.92,-66.86,-4,25.8,19.0,0,MARY'S HARBOUR,463
8402975,PORT AUX BASQUES,PORT AUX BASQUES,NL,-14.2,0,4670,47.57,-59.15,-4,20.2,18.1,0,PORT AUX BASQUES,464
8403097,ROCKY HARBOUR CS,ROCKY HARBOUR CS,NL,-18.2,0,4869,49.57,-57.88,-4,25.6,20.3,0,ROCKY HARBOUR,465
8403255,SAGONA ISLAND,SAGONA ISLAND,NL,-12.4,0,4427,47.37,-59.70,-4,18.8,17.8,0,SAGONA ISLAND,466
8403619,ST LAWRENCE,ST LAWRENCE,NL,-13.2,0,4354,46.92,-55.38,-4,22.2,19.0,0,ST LAWRENCE,467
8403505,ST. JOHN'S INTL A,ST. JOHN'S INTL A,NL,-14.4,0,4548,47.62,-52.75,-4,25.3,21.0,0,ST. JOHN'S INTL ,468
8403801,STEPHENVILLE A,STEPHENVILLE A,NL,-15.2,0,4522,48.53,-58.55,-4,23.4,19.5,0,STEPHENVILLE,469
8403851,TERRA NOVA NAT PARK CS,TERRA NOVA NAT PARK CS,NL,-18.7,0,4689,48.56,-53.97,-4,27.9,21.0,0,TERRA NOVA NAT PARK,470
8404025,TWILLINGATE (AUT),TWILLINGATE (AUT),NL,-16.2,0,4950,49.68,-54.80,-4,25.1,19.6,0,TWILLINGATE,471
8504177,WABUSH A,WABUSH A,NL,-36.5,0,7350,52.92,-66.86,-4,24.7,17.1,0,WABUSH,472
8404241,WINTERLAND,WINTERLAND,NL,-12.7,0,4402,47.14,-55.33,-4,22.9,20.0,0,WINTERLAND,473
8404343,WRECKHOUSE,WRECKHOUSE,NL,-13.2,0,4448,47.71,-59.31,-4,23.6,20.8,0,WRECKHOUSE,474
8200558,BEAVER ISLAND (AUT),BEAVER ISLAND (AUT),NS,-17.9,0,4142,44.82,-62.33,-4,20.0,18.1,0,BEAVER ISLAND,411
8200573,BEDFORD BASIN,BEDFORD BASIN,NS,-16.6,0,3681,44.71,-63.63,-4,27.1,21.3,0,BEDFORD BASIN,412
8200574,BEDFORD RANGE,BEDFORD RANGE,NS,-20.2,0,3980,44.75,-63.66,-4,28.1,21.7,0,BEDFORD RANGE,413
8200604,BRIER ISLAND,BRIER ISLAND,NS,-13.8,0,3718,44.29,-66.35,-4,21.1,18.7,0,BRIER ISLAND,414
8200774,CARIBOU POINT (AUT),CARIBOU POINT (AUT),NS,-19.6,0,4055,45.77,-62.68,-4,27.4,22.2,0,CARIBOU POINT,415
8200827,CHETICAMP CS,CHETICAMP CS,NS,-16.5,0,4116,46.65,-60.95,-4,27.4,22.9,0,CHETICAMP,416
8201390,DEBERT,DEBERT,NS,-25.2,0,4453,45.43,-63.47,-4,27.4,22.0,0,DEBERT,417
8201969,GRAND ETANG,GRAND ETANG,NS,-15.6,0,3982,46.55,-61.05,-4,26.5,22.6,0,GRAND ETANG,418
8202000,GREENWOOD A,GREENWOOD A,NS,-19.5,0,3940,44.98,-64.92,-4,29.1,22.7,0,GREENWOOD,419
8202240,HALIFAX DOCKYARD,HALIFAX DOCKYARD,NS,-16.3,0,3655,44.66,-63.58,-4,27.5,20.7,0,HALIFAX DOCKYARD,420
8202251,HALIFAX INTL A,HALIFAX INTL A,NS,-20.2,0,4107,44.88,-63.51,-4,27.5,21.9,0,HALIFAX INTL,421
8202318,HART ISLAND (AUT),HART ISLAND (AUT),NS,-16.0,0,4059,45.35,-60.98,-4,22.8,20.7,0,HART ISLAND,422
8202502,INGONISH BEACH RCS,INGONISH BEACH RCS,NS,-17.5,0,4205,46.66,-60.41,-4,29.1,22.5,0,INGONISH BEACH,423
8202592,KEJIMKUJIK 1,KEJIMKUJIK 1,NS,-19.5,0,4048,44.40,-65.20,-4,28.6,22.7,0,KEJIMKUJIK 1,424
8202810,KENTVILLE CDA CS,KENTVILLE CDA CS,NS,-20.1,0,4012,45.07,-64.48,-4,28.6,22.7,0,KENTVILLE,425
8203210,LUNENBURG,LUNENBURG,NS,-16.6,0,3793,44.36,-64.30,-4,23.8,19.8,0,LUNENBURG,426
8203405,MALAY FALLS,MALAY FALLS,NS,-23.4,0,4352,44.98,-62.48,-4,27.3,22.0,0,MALAY FALLS,427
8203478,MCNABS ISLAND (AUT),MCNABS ISLAND (AUT),NS,-17.6,0,3906,44.60,-63.53,-4,26.2,21.2,0,MCNABS ISLAND,428
8203702,NAPPAN AUTO,NAPPAN AUTO,NS,-23.7,0,4368,45.76,-64.24,-4,26.3,21.9,0,NAPPAN,429
8204161,NORTH MOUNTAIN CS,NORTH MOUNTAIN CS,NS,-19.3,0,4957,46.82,-60.67,-4,25.3,21.1,0,NORTH MOUNTAIN,430
8204154,NORTHEAST MARGAREE (AUT),NORTHEAST MARGAREE (AUT),NS,-19.0,0,4527,46.37,-60.98,-4,27.7,22.4,0,NORTHEAST MARGAREE,431
8204402,PARRSBORO,PARRSBORO,NS,-23.3,0,4412,45.41,-64.35,-4,25.4,20.9,0,PARRSBORO,432
8204700,SABLE ISLAND,SABLE ISLAND,NS,-10.3,0,3572,43.93,-60.01,-4,20.3,19.1,0,SABLE ISLAND,433
8205092,SHEARWATER RCS,SHEARWATER RCS,NS,-18.1,0,3866,44.64,-63.51,-4,27.3,21.5,0,SHEARWATER,434
8204909,ST PAUL ISLAND (AUT),ST PAUL ISLAND (AUT),NS,-14.3,0,4422,47.23,-60.14,-4,22.0,20.2,0,ST PAUL ISLAND,435
8205701,SYDNEY A,SYDNEY A,NS,-17.9,0,4305,46.16,-60.05,-4,27.4,21.7,0,SYDNEY,436
8205895,TRACADIE,TRACADIE,NS,-20.9,0,4147,46.61,-61.68,-4,27.4,22.4,0,TRACADIE,437
8206240,WESTERN HEAD,WESTERN HEAD,NS,-17.6,0,4035,43.99,-64.66,-4,23.9,19.6,0,WESTERN HEAD,438
8206495,YARMOUTH A,YARMOUTH A,NS,-15.3,0,3828,43.83,-66.09,-4,23.1,20.4,0,YARMOUTH,439
2202101,FORT SIMPSON A,FORT SIMPSON A,NT,-41.8,0,7449,61.76,-121.24,-8,28.0,19.1,0,FORT SIMPSON,478
2202200,FORT SMITH A,FORT SMITH A,NT,-40.0,0,7078,60.02,-111.96,-7,27.8,18.7,0,FORT SMITH,479
2202400,HAY RIVER A,HAY RIVER A,NT,-38.7,0,7324,60.84,-115.78,-7,26.7,18.2,0,HAY RIVER,480
2202570,INUVIK A,INUVIK A,NT,-41.1,0,9223,68.30,-133.48,-8,25.9,17.1,0,INUVIK,481
2202800,NORMAN WELLS A,NORMAN WELLS A,NT,-43.6,0,8281,65.28,-126.80,-8,27.0,17.9,0,NORMAN WELLS,482
2204100,YELLOWKNIFE A,YELLOWKNIFE A,NT,-41.6,0,7889,62.46,-114.44,-7,25.5,17.3,0,YELLOWKNIFE,483
2300500,BAKER LAKE A,BAKER LAKE A,NU,-42.8,0,10320,64.30,-96.08,-6,22.5,15.4,0,BAKER LAKE,484
2400600,CAMBRIDGE BAY A,CAMBRIDGE BAY A,NU,-42.2,0,11332,69.11,-105.14,-7,17.4,13.4,0,CAMBRIDGE BAY,485
2301000,CORAL HARBOUR A,CORAL HARBOUR A,NU,-41.2,0,10183,64.19,-83.36,-5,20.3,14.0,0,CORAL HARBOUR,486
2401200,EUREKA A,EUREKA A,NU,-47.9,0,13093,79.98,-85.93,-6,14.2,8.8,0,EUREKA,487
2402590,IQALUIT A,IQALUIT A,NU,-37.6,0,9481,63.75,-68.55,-5,19.4,13.5,0,IQALUIT,488
2300902,KUGLUKTUK A,KUGLUKTUK A,NU,-41.9,0,10041,67.82,-115.14,-7,22.2,16.0,0,KUGLUKTUK,489
2303401,RANKIN INLET A,RANKIN INLET A,NU,-42.1,0,10027,62.82,-92.12,-6,20.4,14.7,0,RANKIN INLET,490
2403500,RESOLUTE CARS,RESOLUTE CARS,NU,-41.8,0,11897,74.72,-94.97,-6,13.5,9.5,0,RESOLUTE CARS,491
2403854,TALOYOAK A,TALOYOAK A,NU,-44.1,0,11506,69.55,-93.58,-6,17.1,12.2,0,TALOYOAK,492
6080192,ALGONQUIN PARK EAST GATE,ALGONQUIN PARK EAST GATE,ON,-33.7,0,5220,45.53,-78.27,-5,29.0,21.5,0,ALGONQUIN PARK EAST GATE,257
6040325,ARMSTRONG (AUT),ARMSTRONG (AUT),ON,-38.9,0,6488,50.29,-88.34,-5,28.6,21.4,0,ARMSTRONG,258
6020LPQ,ATIKOKAN (AUT),ATIKOKAN (AUT),ON,-35.9,0,5638,48.76,-91.63,-5,29.1,22.1,0,ATIKOKAN,259
616I001,BANCROFT AUTO,BANCROFT AUTO,ON,-32.0,0,4920,45.07,-77.88,-5,29.2,22.6,0,BANCROFT,260
6117700,BARRIE-ORO,BARRIE-ORO,ON,-28.3,0,4509,44.48,-79.55,-5,29.2,22.7,0,BARRIE-ORO,261
6010735,BIG TROUT LAKE A,BIG TROUT LAKE A,ON,-38.7,0,7177,53.82,-89.90,-6,26.7,20.3,0,BIG TROUT LAKE,262
611B002,BORDEN AWOS,BORDEN AWOS,ON,-28.3,0,4386,44.27,-79.91,-5,31.2,23.3,0,BORDEN,263
6151061,BURLINGTON PIERS (AUT),BURLINGTON PIERS (AUT),ON,-17.7,0,3462,43.30,-79.80,-5,30.5,23.7,0,BURLINGTON PIERS,264
6041110,CAMERON FALLS (AUT),CAMERON FALLS (AUT),ON,-30.8,0,5702,49.15,-88.34,-5,28.0,21.1,0,CAMERON FALLS,265
6151684,COBOURG (AUT),COBOURG (AUT),ON,-22.1,0,3941,43.95,-78.17,-5,25.7,22.5,0,COBOURG,266
6111792,COLLINGWOOD,COLLINGWOOD,ON,-21.1,0,3914,44.50,-80.22,-5,29.3,23.2,0,COLLINGWOOD,267
6131983,DELHI CS,DELHI CS,ON,-22.1,0,3855,42.87,-80.55,-5,30.8,23.9,0,DELHI,268
6032125,DRYDEN REGIONAL,DRYDEN REGIONAL,ON,-33.3,0,5707,49.83,-92.74,-6,28.9,21.8,0,DRYDEN REGIONAL,269
6012199,EAR FALLS (AUT),EAR FALLS (AUT),ON,-33.5,0,5925,50.63,-93.22,-6,28.2,21.3,0,EAR FALLS,270
6072223,EARLTON A,EARLTON A,ON,-35.4,0,5576,47.70,-79.85,-5,28.7,22.4,0,EARLTON,271
611E001,EGBERT CS,EGBERT CS,ON,-24.8,0,4229,44.23,-79.78,-5,30.0,23.8,0,EGBERT,272
6142286,ELORA RCS,ELORA RCS,ON,-23.2,0,4310,43.65,-80.42,-5,29.2,23.1,0,ELORA,273
613KLLM,ERIEAU (AUT),ERIEAU (AUT),ON,-16.7,0,3465,42.25,-81.90,-5,27.3,24.8,0,ERIEAU,274
6042716,GERALDTON A,GERALDTON A,ON,-37.1,0,6209,49.78,-86.93,-5,28.1,20.8,0,GERALDTON,275
6122847,GODERICH,GODERICH,ON,-18.7,0,3850,43.77,-81.72,-5,27.9,23.7,0,GODERICH,276
6092920,GORE BAY CLIMATE,GORE BAY CLIMATE,ON,-26.6,0,4467,45.88,-82.57,-5,27.6,22.4,0,GORE BAY CLIMATE,277
6153193,HAMILTON A,HAMILTON A,ON,-20.5,0,3871,43.17,-79.93,-5,30.6,23.9,0,HAMILTON,278
6153301,HAMILTON RBG CS,HAMILTON RBG CS,ON,-20.7,0,3711,43.29,-79.91,-5,31.9,25.0,0,HAMILTON RBG,279
6133362,HARROW CDA AUTO,HARROW CDA AUTO,ON,-19.1,0,3505,42.03,-82.90,-5,31.1,24.9,0,HARROW ,280
6073976,KAPUSKASING A,KAPUSKASING A,ON,-36.0,0,6023,49.41,-82.47,-5,28.6,21.4,0,KAPUSKASING,281
6104027,KEMPTVILLE CS,KEMPTVILLE CS,ON,-27.2,0,4391,45.00,-75.63,-5,30.1,24.3,0,KEMPTVILLE,282
6034076,KENORA A,KENORA A,ON,-32.2,0,5497,49.79,-94.36,-6,28.7,21.9,0,KENORA,283
605DJ25,KILLARNEY (AUT),KILLARNEY (AUT),ON,-25.7,0,4501,45.97,-81.48,-5,25.7,21.5,0,KILLARNEY,284
6074211,KIRKLAND LAKE CS,KIRKLAND LAKE CS,ON,-38.2,0,5797,48.15,-80.00,-5,28.3,21.9,0,KIRKLAND LAKE,285
6114295,LAGOON CITY,LAGOON CITY,ON,-26.2,0,4258,44.55,-79.22,-5,28.4,24.5,0,LAGOON CITY,286
6014353,LANSDOWNE HOUSE (AUT),LANSDOWNE HOUSE (AUT),ON,-39.9,0,6826,52.20,-87.94,-5,27.7,20.5,0,LANSDOWNE HOUSE,287
6144473,LONDON A,LONDON A,ON,-20.8,0,3817,43.03,-81.15,-5,30.3,23.9,0,LONDON,288
6075420,MOOSONEE,MOOSONEE,ON,-35.7,0,6576,51.23,-80.60,-5,28.4,21.7,0,MOOSONEE,289
6145504,MOUNT FOREST (AUT),MOUNT FOREST (AUT),ON,-23.9,0,4353,43.98,-80.75,-5,28.6,22.8,0,MOUNT FOREST,290
6115529,MUSKOKA,MUSKOKA,ON,-31.0,0,4691,44.97,-79.30,-5,29.3,22.6,0,MUSKOKA,291
6075543,NAGAGAMI (AUT),NAGAGAMI (AUT),ON,-38.3,0,6238,49.75,-84.16,-5,28.5,21.5,0,NAGAGAMI,292
6085680,NORTH BAY A,NORTH BAY A,ON,-30.3,0,4992,46.36,-79.42,-5,27.6,21.8,0,NORTH BAY,293
6106001,OTTAWA INTL A,OTTAWA INTL A,ON,-26.2,0,4347,45.32,-75.67,-5,30.4,23.6,0,OTTAWA INTL,294
6116257,PARRY SOUND CCG,PARRY SOUND CCG,ON,-28.5,0,4396,45.34,-80.04,-5,27.7,23.0,0,PARRY SOUND,295
6016295,PEAWANUCK (AUT),PEAWANUCK (AUT),ON,-39.7,0,7784,53.98,-85.43,-5,27.6,19.7,0,PEAWANUCK,296
6166415,PETERBOROUGH,PETERBOROUGH,ON,-26.0,0,4276,44.23,-78.36,-5,30.0,23.7,0,PETERBOROUGH,297
6016525,PICKLE LAKE (AUT),PICKLE LAKE (AUT),ON,-34.2,0,6367,51.45,-90.22,-5,28.4,20.8,0,PICKLE LAKE,298
613P001,POINT PELEE CS,POINT PELEE CS,ON,-19.3,0,3684,41.95,-82.52,-5,29.7,25.6,0,POINT PELEE,299
6156559,POINT PETRE (AUT),POINT PETRE (AUT),ON,-22.6,0,3840,43.83,-77.15,-5,26.0,23.2,0,POINT PETRE,300
6136699,PORT WELLER (AUT),PORT WELLER (AUT),ON,-14.6,0,3361,43.25,-79.22,-5,29.6,24.5,0,PORT WELLER,301
6046768,PUKASKWA (AUT),PUKASKWA (AUT),ON,-31.1,0,5536,48.61,-86.29,-5,22.7,19.0,0,PUKASKWA,302
6057591,SAULT STE MARIE A,SAULT STE MARIE A,ON,-27.2,0,4772,46.49,-84.51,-5,28.4,22.4,0,SAULT STE MARIE,303
6037776,SIOUX LOOKOUT A,SIOUX LOOKOUT A,ON,-34.6,0,5804,50.11,-91.91,-6,28.5,21.5,0,SIOUX LOOKOUT ,304
6068153,SUDBURY A,SUDBURY A,ON,-30.2,0,5045,46.63,-80.80,-5,28.8,21.6,0,SUDBURY,305
6048262,THUNDER BAY A,THUNDER BAY A,ON,-31.6,0,5431,48.37,-89.32,-5,29.2,22.1,0,THUNDER BAY,306
6078286,TIMMINS A,TIMMINS A,ON,-36.2,0,5820,48.57,-81.38,-5,29.1,21.4,0,TIMMINS,307
615HMAK,TORONTO BUTTONVILLE A,TORONTO BUTTONVILLE A,ON,-22.8,0,3879,43.86,-79.37,-5,31.7,23.4,0,TORONTO BUTTONVILLE,308
6158355,TORONTO CITY,TORONTO CITY,ON,-19.7,0,3462,43.67,-79.40,-5,30.8,24.4,0,TORONTO CITY,309
6158359,TORONTO CITY CENTRE,TORONTO CITY CENTRE,ON,-19.0,0,3574,43.63,-79.39,-5,28.6,23.3,0,TORONTO CITY CENTRE,310
6158731,TORONTO INTL A,TORONTO INTL A,ON,-21.1,0,3677,43.68,-79.63,-5,31.6,24.0,0,TORONTO INTL,311
6158875,TRENTON A,TRENTON A,ON,-24.1,0,3964,44.12,-77.53,-5,29.3,23.6,0,TRENTON,312
6049095,UPSALA (AUT),UPSALA (AUT),ON,-35.0,0,5961,49.03,-90.47,-5,28.1,21.6,0,UPSALA,313
6139148,VINELAND STATION RCS,VINELAND STATION RCS,ON,-16.7,0,3555,43.18,-79.40,-5,30.8,23.8,0,VINELAND STATION,314
6059408,WAWA (AUT),WAWA (AUT),ON,-33.6,0,5616,47.97,-84.78,-5,24.8,20.0,0,WAWA,315
6119500,WIARTON A,WIARTON A,ON,-20.3,0,4155,44.75,-81.11,-5,28.0,22.8,0,WIARTON,316
6139527,WINDSOR A,WINDSOR A,ON,-17.7,0,3308,42.28,-82.96,-5,32.0,24.6,0,WINDSOR,317
8300301,CHARLOTTETOWN A,CHARLOTTETOWN A,PE,-21.6,0,4394,46.29,-63.12,-4,26.8,21.9,0,CHARLOTTETOWN,440
8300418,EAST POINT (AUT),EAST POINT (AUT),PE,-19.4,0,4353,46.46,-61.99,-4,24.1,21.4,0,EAST POINT,441
830P001,HARRINGTON CDA CS,HARRINGTON CDA CS,PE,-21.3,0,4383,46.34,-63.17,-4,26.8,22.1,0,HARRINGTON,442
8305500,MAPLE PLAINS,MAPLE PLAINS,PE,-24.2,0,4680,46.30,-63.58,-4,26.4,21.7,0,MAPLE PLAINS,443
8300516,NORTH CAPE,NORTH CAPE,PE,-20.8,0,4414,47.06,-64.00,-4,26.0,22.2,0,NORTH CAPE,444
8300562,ST. PETERS,ST. PETERS,PE,-20.9,0,4354,46.45,-62.58,-4,27.8,22.3,0,ST. PETERS,445
8300596,SUMMERSIDE,SUMMERSIDE,PE,-22.3,0,4367,46.44,-63.84,-4,26.7,21.7,0,SUMMERSIDE,446
7050145,AMQUI,AMQUI,QC,-29.8,0,5393,48.47,-67.43,-5,27.4,20.9,0,AMQUI,318
7060400,BAGOTVILLE A,BAGOTVILLE A,QC,-31.9,0,5418,48.33,-71.00,-5,28.6,21.1,0,BAGOTVILLE,319
704S001,BAIE-COMEAU,BAIE-COMEAU,QC,-28.5,0,5484,49.26,-68.15,-5,25.0,19.2,0,BAIE-COMEAU,320
7040442,BAIE-COMEAU A,BAIE-COMEAU A,QC,-29.1,0,5585,49.13,-68.20,-5,23.7,19.2,0,BAIE-COMEAU A,321
7080468,BARRAGE TEMISCAMINGUE,BARRAGE TEMISCAMINGUE,QC,-29.0,0,4820,46.71,-79.10,-5,29.1,22.0,0,BARRAGE TEMISCAMINGUE,322
7028754,BEAUCEVILLE,BEAUCEVILLE,QC,-29.3,0,4945,46.21,-70.78,-5,28.4,22.1,0,BEAUCEVILLE,323
7010565,BEAUPORT,BEAUPORT,QC,-26.5,0,4631,46.84,-71.20,-5,29.5,23.6,0,BEAUPORT,324
7060826,BONNARD 1,BONNARD 1,QC,-38.2,0,6772,50.73,-71.01,-5,25.3,18.6,0,BONNARD 1,325
7051050,CAP-D'ESPOIR,CAP-D'ESPOIR,QC,-23.7,0,5210,48.42,-64.32,-5,21.0,19.1,0,CAP-D'ESPOIR,326
7041100,CAPE WHITTLE,CAPE WHITTLE,QC,-24.6,0,5748,50.16,-60.06,-4,16.0,15.2,0,CAPE WHITTLE,327
7051163,CAP-MADELEINE,CAP-MADELEINE,QC,-22.1,0,5068,49.25,-65.32,-5,23.4,19.3,0,CAP-MADELEINE,328
7041166,CAP-ROUGE,CAP-ROUGE,QC,-29.7,0,5128,48.37,-70.54,-5,26.7,20.9,0,CAP-ROUGE,329
7041JG6,CAP-TOURMENTE,CAP-TOURMENTE,QC,-26.2,0,4650,47.08,-70.78,-5,28.0,22.9,0,CAP-TOURMENTE,330
7061288,CHAMOUCHOUANE,CHAMOUCHOUANE,QC,-40.9,0,6299,49.28,-73.36,-5,27.9,21.3,0,CHAMOUCHOUANE,331
7091299,CHAPAIS,CHAPAIS,QC,-38.3,0,6471,49.82,-74.98,-5,27.5,20.1,0,CHAPAIS,332
7041312,CHARLEVOIX (MRC),CHARLEVOIX (MRC),QC,-31.3,0,6214,47.28,-70.64,-5,23.8,19.9,0,CHARLEVOIX,333
7041382,CHEVERY,CHEVERY,QC,-28.4,0,5983,50.47,-59.64,-5,19.8,16.7,0,CHEVERY,334
7061541,CHUTE-DES-PASSES,CHUTE-DES-PASSES,QC,-35.6,0,6241,49.84,-71.17,-5,26.5,20.0,0,CHUTE-DES-PASSES,335
7011983,DESCHAMBAULT,DESCHAMBAULT,QC,-31.8,0,5052,46.69,-71.97,-5,28.7,23.4,0,DESCHAMBAULT,336
7042395,FORET MONTMORENCY RCS,FORET MONTMORENCY RCS,QC,-34.8,0,6307,47.32,-71.15,-5,24.7,19.4,0,FORET MONTMORENCY,337
7022579,FRELIGHSBURG,FRELIGHSBURG,QC,-28.0,0,4286,45.03,-72.85,-5,29.0,23.4,0,FRELIGHSBURG,338
7052601,GASPE A,GASPE A,QC,-26.3,0,5252,48.78,-64.48,-5,27.3,20.9,0,GASPE,339
7043019,HAVRE ST. PIERRE,HAVRE ST. PIERRE,QC,-28.6,0,5834,50.28,-63.61,-5,22.6,18.4,0,HAVRE ST. PIERRE,340
7033121,HIGH FALLS,HIGH FALLS,QC,-28.9,0,4798,45.84,-75.65,-5,29.2,22.8,0,HIGH FALLS,341
7043B79,ILE AUX PERROQUETS,ILE AUX PERROQUETS,QC,-24.3,0,5814,50.22,-64.21,-5,17.0,15.8,0,ILE AUX PERROQUETS,342
7043BP9,ILE ROUGE,ILE ROUGE,QC,-26.8,0,5395,48.07,-69.56,-5,22.9,19.0,0,ILE ROUGE,343
7053KGR,ILES DE LA MADELEINE,ILES DE LA MADELEINE,QC,-16.8,0,4470,47.43,-61.77,-5,23.5,20.6,0,ILES DE LA MADELEINE,344
7063370,JONQUIERE,JONQUIERE,QC,-31.7,0,5343,48.43,-71.14,-5,28.0,21.7,0,JONQUIERE,345
7113534,KUUJJUAQ A,KUUJJUAQ A,QC,-37.3,0,7974,58.10,-68.42,-5,24.4,17.5,0,KUUJJUAQ,346
7103537,KUUJJUARAPIK A,KUUJJUARAPIK A,QC,-36.3,0,7531,55.28,-77.77,-5,24.5,17.7,0,KUUJJUARAPIK,347
706Q001,LA BAIE,LA BAIE,QC,-33.4,0,5622,48.30,-70.92,-5,28.0,21.6,0,LA BAIE,348
7054096,LA POCATIERE,LA POCATIERE,QC,-25.4,0,4892,47.36,-70.03,-5,27.7,22.5,0,LA POCATIERE,349
707DBD4,LA TUQUE,LA TUQUE,QC,-34.3,0,5373,47.41,-72.79,-5,29.6,21.9,0,LA TUQUE,350
706I001,LAC BENOIT,LAC BENOIT,QC,-43.8,0,7300,51.53,-71.11,-5,25.7,18.7,0,LAC BENOIT,351
704C64L,LAC EON,LAC EON,QC,-35.7,0,7006,51.87,-63.28,-5,25.8,19.1,0,LAC EON,352
702CFGG,LAC MEMPHREMAGOG,LAC MEMPHREMAGOG,QC,-28.1,0,4523,45.27,-72.17,-5,28.0,23.1,0,LAC MEMPHREMAGOG,353
701LP0N,LAC SAINT-PIERRE,LAC SAINT-PIERRE,QC,-25.7,0,4359,46.18,-72.92,-5,28.0,23.1,0,LAC SAINT-PIERRE,354
702LED4,L'ACADIE,L'ACADIE,QC,-26.0,0,4280,45.29,-73.35,-5,29.5,23.7,0,L'ACADIE,355
7014160,L'ASSOMPTION,L'ASSOMPTION,QC,-28.4,0,4533,45.81,-73.43,-5,30.0,23.7,0,L'ASSOMPTION,356
7064181,LATERRIERE,LATERRIERE,QC,-34.7,0,5609,48.31,-71.13,-5,28.0,21.2,0,LATERRIERE,357
701Q009,LEMIEUX,LEMIEUX,QC,-32.3,0,4943,46.30,-72.06,-5,29.1,23.4,0,LEMIEUX,358
7024280,LENNOXVILLE,LENNOXVILLE,QC,-28.7,0,4523,45.37,-71.82,-5,28.9,23.1,0,LENNOXVILLE,359
7015791,L'ETAPE,L'ETAPE,QC,-35.4,0,6503,47.56,-71.23,-5,23.9,19.0,0,L'ETAPE,360
7044328,LONGUE-POINTE-DE-MINGAN,LONGUE-POINTE-DE-MINGAN,QC,-29.2,0,5982,50.27,-64.23,-5,21.3,17.9,0,LONGUE-POINTE-DE-MINGAN,361
7040815,LOURDES DE BLANC SABLON A,LOURDES DE BLANC SABLON A,QC,-26.5,0,5997,51.44,-57.19,-4,19.0,16.4,0,LOURDES DE BLANC SABLON,362
7034482,MANIWAKI AIRPORT,MANIWAKI AIRPORT,QC,-30.3,0,4901,46.27,-75.99,-5,29.4,22.7,0,MANIWAKI AIRPORT,363
706I155,MANOUANE EST,MANOUANE EST,QC,-40.0,0,6877,50.66,-70.53,-5,25.4,19.0,0,MANOUANE EST,364
7094636,MATAGAMI A,MATAGAMI A,QC,-36.4,0,6372,49.76,-77.80,-5,27.9,20.5,0,MATAGAMI,365
7024745,MCTAVISH,MCTAVISH,QC,-24.4,0,4033,45.50,-73.58,-5,29.7,23.4,0,MCTAVISH,366
7055121,MONT JOLI A,MONT JOLI A,QC,-25.5,0,5092,48.61,-68.21,-5,26.5,20.8,0,MONT JOLI,367
7025251,MONTREAL INTL A,MONTREAL INTL A,QC,-25.0,0,4173,45.47,-73.74,-5,29.9,23.4,0,MONTREAL INTL,368
7034900,MONTREAL MIRABEL INTL A,MONTREAL MIRABEL INTL A,QC,-28.0,0,4572,45.68,-74.03,-5,29.4,23.3,0,MONTREAL MIRABEL INTL,369
7025252,MONTREAL-EST,MONTREAL-EST,QC,-25.5,0,4227,45.63,-73.55,-5,29.7,23.9,0,MONTREAL-EST,370
7027329,MONTREAL-ST-HUBERT,MONTREAL-ST-HUBERT,QC,-25.0,0,4284,45.52,-73.42,-5,29.8,23.6,0,MONTREAL-ST-HUBERT,371
7045401,NATASHQUAN A,NATASHQUAN A,QC,-28.1,0,5773,50.19,-61.81,-4,22.0,18.2,0,NATASHQUAN,372
7055422,NEW CARLISLE 1,NEW CARLISLE 1,QC,-24.2,0,4963,48.01,-65.33,-5,25.6,21.1,0,NEW CARLISLE 1,373
7025442,NICOLET,NICOLET,QC,-27.8,0,4562,46.23,-72.66,-5,28.7,23.6,0,NICOLET,374
7065639,NORMANDIN,NORMANDIN,QC,-37.5,0,5929,48.84,-72.55,-5,27.6,21.7,0,NORMANDIN,375
7075800,PARENT,PARENT,QC,-36.9,0,5952,47.92,-74.64,-5,27.1,21.7,0,PARENT,376
704607C,POINTE CLAVEAU,POINTE CLAVEAU,QC,-28.2,0,5098,48.26,-70.11,-5,25.8,20.4,0,POINTE CLAVEAU,377
7046059,POINTE DE L'ISLET,POINTE DE L'ISLET,QC,-25.7,0,5030,48.14,-69.72,-5,24.2,19.9,0,POINTE DE L'ISLET,378
704Q003,POINTE NOIRE CS,POINTE NOIRE CS,QC,-25.8,0,5294,50.16,-66.43,-5,24.6,23.6,0,POINTE NOIRE,379
7056068,POINTE-AU-PERE (INRS),POINTE-AU-PERE (INRS),QC,-24.6,0,5196,48.51,-68.47,-5,22.8,19.9,0,POINTE-AU-PERE,380
704F0PN,POINTE-DES-MONTS,POINTE-DES-MONTS,QC,-26.4,0,5564,49.32,-67.38,-5,19.7,17.5,0,POINTE-DES-MONTS,381
7056202,PORT-MENIER,PORT-MENIER,QC,-24.0,0,5515,48.84,-64.29,-5,23.6,19.1,0,PORT-MENIER,382
7016293,QUEBEC INTL A,QUEBEC INTL A,QC,-28.1,0,4833,46.80,-71.38,-5,28.6,22.9,0,QUEBEC INTL,383
7056616,RIVIERE-DU-LOUP,RIVIERE-DU-LOUP,QC,-26.3,0,5212,47.81,-69.55,-5,25.9,21.3,0,RIVIERE-DU-LOUP,384
7066686,ROBERVAL A,ROBERVAL A,QC,-32.7,0,5510,48.52,-72.27,-5,27.6,21.2,0,ROBERVAL,385
7086716,ROUYN,ROUYN,QC,-33.6,0,5634,48.25,-79.03,-5,28.2,21.0,0,ROUYN,386
7086719,ROUYN-NORANDA A,ROUYN-NORANDA A,QC,-36.3,0,5802,48.21,-78.84,-5,28.4,21.2,0,ROUYN-NORANDA,387
7117823,SCHEFFERVILLE A,SCHEFFERVILLE A,QC,-37.6,0,7870,54.81,-66.81,-5,23.6,16.7,0,SCHEFFERVILLE,388
7047911,SEPT-ILES A,SEPT-ILES A,QC,-29.9,0,5872,50.22,-66.27,-5,22.8,18.1,0,SEPT-ILES,389
7018001,SHAWINIGAN,SHAWINIGAN,QC,-28.1,0,4840,46.56,-72.73,-5,29.1,22.9,0,SHAWINIGAN,390
702FQLF,ST-ANICET 1,ST-ANICET 1,QC,-27.7,0,4311,45.12,-74.29,-5,30.2,24.3,0,ST-ANICET 1,391
702FHL8,STE-ANNE-DE-BELLEVUE 1,STE-ANNE-DE-BELLEVUE 1,QC,-26.0,0,4289,45.43,-73.93,-5,29.5,23.5,0,STE-ANNE-DE-BELLEVUE 1,392
7027039,STE-CLOTHILDE,STE-CLOTHILDE,QC,-27.1,0,4340,45.17,-73.68,-5,29.8,23.7,0,STE-CLOTHILDE,393
701Q004,STE-FOY (U. LAVAL),STE-FOY (U. LAVAL),QC,-27.0,0,4762,46.78,-71.29,-5,28.7,22.8,0,STE-FOY (U. LAVAL),394
703GDKB,ST-JOVITE,ST-JOVITE,QC,-33.5,0,5113,46.08,-74.56,-5,28.7,22.3,0,ST-JOVITE,395
7098600,VAL-D'OR A,VAL-D'OR A,QC,-34.6,0,5802,49.76,-77.80,-5,28.6,21.5,0,VAL-D'OR,396
702327X,VARENNES,VARENNES,QC,-25.8,0,4397,45.72,-73.38,-5,29.7,23.6,0,VARENNES,397
4020286,ASSINIBOIA AIRPORT,ASSINIBOIA AIRPORT,SK,-32.0,0,5209,49.73,-105.95,-6,31.6,21.2,0,ASSINIBOIA AIRPORT,177
4010879,BROADVIEW,BROADVIEW,SK,-34.2,0,5793,50.37,-102.57,-6,29.0,21.7,0,BROADVIEW,178
4060983,BUFFALO NARROWS (AUT),BUFFALO NARROWS (AUT),SK,-38.6,0,6242,55.84,-108.42,-6,27.3,19.1,0,BUFFALO NARROWS,179
40318MN,CORONACH SPC,CORONACH SPC,SK,-31.9,0,5202,49.05,-105.48,-6,32.6,21.2,0,CORONACH SPC,180
4031999,CYPRESS HILLS PARK,CYPRESS HILLS PARK,SK,-30.5,0,5254,49.64,-109.51,-6,28.0,17.7,0,CYPRESS HILLS PARK,181
4032322,EASTEND CYPRESS (AUT),EASTEND CYPRESS (AUT),SK,-30.4,0,5287,49.44,-108.99,-6,30.0,18.7,0,EASTEND CYPRESS ,182
4022359,ELBOW CS,ELBOW CS,SK,-33.3,0,5499,51.13,-106.58,-6,30.6,21.2,0,ELBOW,183
4012400,ESTEVAN A,ESTEVAN A,SK,-34.1,0,5425,49.22,-102.97,-6,30.4,22.0,0,ESTEVAN,184
4083324,HUDSON BAY(AUT),HUDSON BAY(AUT),SK,-35.7,0,6192,52.82,-102.32,-6,28.6,21.4,0,HUDSON BAY,185
4013480,INDIAN HEAD CDA,INDIAN HEAD CDA,SK,-34.3,0,5845,50.55,-103.65,-6,28.4,22.5,0,INDIAN HEAD,186
4063605,ISLAND FALLS (AUT),ISLAND FALLS (AUT),SK,-37.1,0,6939,55.53,-102.35,-6,27.4,18.8,0,ISLAND FALLS,187
4063623,JIMMY LAKE AWOS,JIMMY LAKE AWOS,SK,-35.5,0,6055,54.91,-109.96,-6,26.8,19.3,0,JIMMY LAKE,188
4063757,KEY LAKE A,KEY LAKE A,SK,-45.7,0,7506,57.25,-105.60,-6,27.0,17.9,0,KEY LAKE,189
4043901,KINDERSLEY A,KINDERSLEY A,SK,-33.5,0,5552,51.52,-109.18,-6,30.3,20.3,0,KINDERSLEY,190
4064155,LA RONGE A,LA RONGE A,SK,-38.1,0,6442,55.15,-105.27,-6,27.8,19.6,0,LA RONGE,191
4014156,LAST MOUNTAIN CS,LAST MOUNTAIN CS,SK,-35.1,0,5846,51.42,-105.25,-6,29.2,21.9,0,LAST MOUNTAIN,192
402DAF0,LEADER AIRPORT,LEADER AIRPORT,SK,-34.5,0,5218,50.91,-109.50,-6,32.0,20.1,0,LEADER AIRPORT,193
4024714,LUCKY LAKE,LUCKY LAKE,SK,-32.3,0,5386,50.95,-107.15,-6,29.8,21.7,0,LUCKY LAKE,194
4024919,MAPLE CREEK,MAPLE CREEK,SK,-32.7,0,4773,49.90,-109.47,-6,32.2,20.3,0,MAPLE CREEK,195
406N0NM,MEADOW LAKE,MEADOW LAKE,SK,-38.7,0,6229,54.13,-108.52,-6,27.8,21.0,0,MEADOW LAKE,196
4055079,MELFORT,MELFORT,SK,-34.5,0,6090,52.82,-104.60,-6,27.6,22.0,0,MELFORT,197
4015322,MOOSE JAW CS,MOOSE JAW CS,SK,-32.8,0,5308,50.33,-105.54,-6,30.7,22.2,0,MOOSE JAW,198
407N51G,NIPAWIN,NIPAWIN,SK,-38.0,0,6259,53.33,-104.00,-6,27.9,20.9,0,NIPAWIN,199
4045695,NORTH BATTLEFORD,NORTH BATTLEFORD,SK,-34.3,0,5821,52.77,-108.24,-6,28.7,20.7,0,NORTH BATTLEFORD,200
4055736,OUTLOOK PFRA,OUTLOOK PFRA,SK,-32.2,0,5328,51.48,-107.05,-6,30.0,21.4,0,OUTLOOK,201
4056241,PRINCE ALBERT A,PRINCE ALBERT A,SK,-37.1,0,6060,53.21,-105.67,-6,28.3,21.0,0,PRINCE ALBERT,202
4016566,REGINA INTL A,REGINA INTL A,SK,-35.3,0,5685,50.43,-104.67,-6,30.0,22.3,0,REGINA INTL,203
4036844,ROCKGLEN (AUT),ROCKGLEN (AUT),SK,-31.1,0,5189,49.17,-105.98,-6,31.7,20.0,0,ROCKGLEN,204
4046884,ROSETOWN EAST,ROSETOWN EAST,SK,-34.3,0,5709,51.57,-107.92,-6,30.2,21.1,0,ROSETOWN EAST,205
4057152,SASKATOON INTL A,SASKATOON INTL A,SK,-35.0,0,5762,52.17,-106.70,-6,29.5,21.4,0,SASKATOON INTL,206
4047240,SCOTT CDA,SCOTT CDA,SK,-34.5,0,5888,52.36,-108.83,-6,28.9,20.4,0,SCOTT ,207
4067655,SOUTHEND,SOUTHEND,SK,-40.7,0,7192,56.33,-103.28,-6,27.3,19.2,0,SOUTHEND,208
4067723,SPIRITWOOD WEST,SPIRITWOOD WEST,SK,-36.4,0,6061,53.37,-107.55,-6,27.4,21.5,0,SPIRITWOOD WEST,209
4067PR5,STONY RAPIDS A,STONY RAPIDS A,SK,-43.9,0,7681,59.25,-105.83,-6,27.6,18.6,0,STONY RAPIDS,210
4028038,SWIFT CURRENT,SWIFT CURRENT,SK,-32.2,0,5164,50.29,-107.69,-6,30.6,20.5,0,SWIFT CURRENT,211
4028060,SWIFT CURRENT CDA,SWIFT CURRENT CDA,SK,-32.3,0,5182,50.27,-107.73,-6,30.4,20.8,0,SWIFT CURRENT CDA,212
4038412,VAL MARIE SOUTHEAST,VAL MARIE SOUTHEAST,SK,-34.4,0,5257,49.06,-107.59,-6,33.5,20.0,0,VAL MARIE SOUTHEAST,213
4068559,WASKESIU LAKE,WASKESIU LAKE,SK,-35.2,0,6047,53.92,-106.07,-6,27.7,20.0,0,WASKESIU LAKE,214
4018642,WATROUS EAST,WATROUS EAST,SK,-34.7,0,5876,51.67,-105.40,-6,28.7,22.1,0,WATROUS EAST,215
401HP5R,WEYBURN,WEYBURN,SK,-33.9,0,5456,49.70,-103.80,-6,31.1,22.9,0,WEYBURN,216
40190LN,WYNYARD (AUT),WYNYARD (AUT),SK,-34.5,0,5895,51.77,-104.20,-6,28.5,21.1,0,WYNYARD,217
4019075,YORKTON,YORKTON,SK,-34.5,0,5880,51.26,-102.46,-6,28.9,21.7,0,YORKTON,218
2100700,MAYO A,MAYO A,YT,-49.6,0,7355,63.62,-135.87,-8,26.1,15.7,0,MAYO,475
2101200,WATSON LAKE A,WATSON LAKE A,YT,-47.1,0,7318,60.12,-128.82,-8,25.4,16.1,0,WATSON LAKE,476
2101300,WHITEHORSE A,WHITEHORSE A,YT,-41.8,0,6571,60.71,-135.07,-8,24.7,14.5,0,WHITEHORSE,477
,,,,,,,,,,,,,,
